{
  "version": "1.0",
  "year": 2024,
  "form": "2-ТП Воздух",
  "source": "Росприроднадзор (rpn.gov.ru)",
  "published": "2025-03",
  "units": "тонны/год",
  "fields": ["vsego_t", "tverdye_t", "so2_t", "co_t", "nox_t", "los_t", "prochie_t"],
  "note": "Данные за 2024 г. Иркутская область. Углеводороды (без ЛОС) включены в «прочие». Города-спутники (Ангарск, Шелехов) — отдельные МО.",
  "municipalities": [
    {
      "id": "angarsk_go",
      "name": "ГО Ангарский",
      "short": "Ангарск",
      "type": "городской округ",
      "lat": 52.5437,
      "lon": 103.8883,
      "vsego_t": 182879,
      "tverdye_t": 33822,
      "so2_t": 105511,
      "co_t": 4770,
      "nox_t": 23172,
      "los_t": 4624,
      "prochie_t": 10980,
      "data_status": "report",
      "main_sources": "Ангарская НХК (Роснефть), Ангарский электролизный химический комбинат, ТЭЦ-9, ТЭЦ-10"
    },
    {
      "id": "bratsk_city",
      "name": "г. Братск",
      "short": "Братск",
      "type": "город",
      "lat": 56.1325,
      "lon": 101.6142,
      "vsego_t": 98770,
      "tverdye_t": 11802,
      "so2_t": 13780,
      "co_t": 64427,
      "nox_t": 7209,
      "los_t": 469,
      "prochie_t": 1083,
      "data_status": "report",
      "main_sources": "РУСАЛ-БрАЗ (алюминий), Братская ТЭЦ, БЛПК (целлюлоза)"
    },
    {
      "id": "irkutsk_city",
      "name": "г. Иркутск",
      "short": "Иркутск",
      "type": "город",
      "lat": 52.2978,
      "lon": 104.2964,
      "vsego_t": 80396,
      "tverdye_t": 11657,
      "so2_t": 53108,
      "co_t": 4787,
      "nox_t": 9658,
      "los_t": 1026,
      "prochie_t": 160,
      "data_status": "report",
      "main_sources": "Ново-Иркутская ТЭЦ, Иркутская ТЭЦ-5, угольная энергетика в городской черте"
    },
    {
      "id": "ust_kut_mr",
      "name": "Усть-Кутский МР",
      "short": "Усть-Кутский р-н",
      "type": "район",
      "lat": 56.7943,
      "lon": 105.7600,
      "vsego_t": 147294,
      "tverdye_t": 5131,
      "so2_t": 35928,
      "co_t": 75059,
      "nox_t": 17143,
      "los_t": 7380,
      "prochie_t": 6654,
      "data_status": "report",
      "main_sources": "Ковыктинское и Верхнечонское месторождения, ВСТО, ИНК"
    },
    {
      "id": "kirensk_mr",
      "name": "Киренский МР",
      "short": "Киренский р-н",
      "type": "район",
      "lat": 57.7700,
      "lon": 108.1200,
      "vsego_t": 49312,
      "tverdye_t": 720,
      "so2_t": 999,
      "co_t": 39195,
      "nox_t": 6583,
      "los_t": 879,
      "prochie_t": 937,
      "data_status": "report",
      "main_sources": "Нефтедобыча, факельное сжигание газа"
    },
    {
      "id": "katanga_mr",
      "name": "Катангский МР",
      "short": "Катангский р-н",
      "type": "район",
      "lat": 58.4000,
      "lon": 106.5000,
      "vsego_t": 43484,
      "tverdye_t": 1161,
      "so2_t": 155,
      "co_t": 25102,
      "nox_t": 3705,
      "los_t": 12080,
      "prochie_t": 1281,
      "data_status": "report",
      "main_sources": "Нефтедобыча на Верхнечонском месторождении, факельное сжигание"
    },
    {
      "id": "shelehov_mr",
      "name": "Шелеховский МР",
      "short": "Шелехов",
      "type": "район",
      "lat": 52.2140,
      "lon": 104.0860,
      "vsego_t": 38423,
      "tverdye_t": 4782,
      "so2_t": 6275,
      "co_t": 26084,
      "nox_t": 920,
      "los_t": 78,
      "prochie_t": 284,
      "data_status": "report",
      "main_sources": "ИркАЗ-РУСАЛ (алюминий), Шелеховский промузел"
    },
    {
      "id": "ust_ilimsk_city",
      "name": "г. Усть-Илимск",
      "short": "Усть-Илимск",
      "type": "город",
      "lat": 57.9510,
      "lon": 102.7270,
      "vsego_t": 34189,
      "tverdye_t": 12475,
      "so2_t": 8047,
      "co_t": 6172,
      "nox_t": 6954,
      "los_t": 462,
      "prochie_t": 79,
      "data_status": "report",
      "main_sources": "Усть-Илимский ЛПК (целлюлоза), ТЭЦ"
    },
    {
      "id": "sayanск_city",
      "name": "г. Саянск",
      "short": "Саянск",
      "type": "город",
      "lat": 54.1123,
      "lon": 102.1700,
      "vsego_t": 26905,
      "tverdye_t": 4421,
      "so2_t": 14506,
      "co_t": 159,
      "nox_t": 4189,
      "los_t": 2547,
      "prochie_t": 1083,
      "data_status": "report",
      "main_sources": "Саянскхимпласт (ПВХ, хлор), ТЭЦ"
    },
    {
      "id": "usolie_sib_city",
      "name": "г. Усолье-Сибирское",
      "short": "Усолье-Сибирское",
      "type": "город",
      "lat": 52.7530,
      "lon": 103.6300,
      "vsego_t": 23822,
      "tverdye_t": 6180,
      "so2_t": 14168,
      "co_t": 167,
      "nox_t": 3250,
      "los_t": 44,
      "prochie_t": 13,
      "data_status": "report",
      "main_sources": "«Усольехимпром» (промплощадка), ТЭЦ"
    },
    {
      "id": "taishet_mr",
      "name": "Тайшетский МР",
      "short": "Тайшетский р-н",
      "type": "район",
      "lat": 55.9400,
      "lon": 98.0000,
      "vsego_t": 18780,
      "tverdye_t": 2211,
      "so2_t": 3924,
      "co_t": 10421,
      "nox_t": 1066,
      "los_t": 958,
      "prochie_t": 200,
      "data_status": "report",
      "main_sources": "Тайшетский алюминиевый завод (РУСАЛ), Бирюсинск ТЭЦ"
    },
    {
      "id": "bodaibo_mr",
      "name": "Бодайбинский МР",
      "short": "Бодайбинский р-н",
      "type": "район",
      "lat": 57.8500,
      "lon": 114.1900,
      "vsego_t": 19014,
      "tverdye_t": 8402,
      "so2_t": 721,
      "co_t": 4987,
      "nox_t": 2787,
      "los_t": 640,
      "prochie_t": 1477,
      "data_status": "report",
      "main_sources": "Золотодобыча (Полюс), дизель-генераторы, карьерная техника"
    },
    {
      "id": "kazachinsk_mr",
      "name": "Казачинско-Ленский МР",
      "short": "Казачинско-Ленский р-н",
      "type": "район",
      "lat": 56.2700,
      "lon": 105.8500,
      "vsego_t": 9403,
      "tverdye_t": 661,
      "so2_t": 99,
      "co_t": 2247,
      "nox_t": 733,
      "los_t": 1290,
      "prochie_t": 4373,
      "data_status": "report",
      "main_sources": "Нефтедобыча ИНК, трубопроводная инфраструктура"
    },
    {
      "id": "nizhneilim_mr",
      "name": "Нижнеилимский МР",
      "short": "Нижнеилимский р-н",
      "type": "район",
      "lat": 56.9200,
      "lon": 103.8600,
      "vsego_t": 6886,
      "tverdye_t": 2343,
      "so2_t": 1299,
      "co_t": 1876,
      "nox_t": 1237,
      "los_t": 81,
      "prochie_t": 50,
      "data_status": "report",
      "main_sources": "Коршуновский ГОК (Мечел), угольные котельные"
    },
    {
      "id": "nizhneudisk_mr",
      "name": "Нижнеудинский МР",
      "short": "Нижнеудинский р-н",
      "type": "район",
      "lat": 54.9070,
      "lon": 99.0280,
      "vsego_t": 7020,
      "tverdye_t": 2776,
      "so2_t": 839,
      "co_t": 2170,
      "nox_t": 205,
      "los_t": 867,
      "prochie_t": 163,
      "data_status": "estimate",
      "main_sources": "ТЭЦ, лесопереработка, угольные котельные"
    },
    {
      "id": "zhigalovo_mr",
      "name": "Жигаловский МР",
      "short": "Жигаловский р-н",
      "type": "район",
      "lat": 54.8100,
      "lon": 105.1500,
      "vsego_t": 6876,
      "tverdye_t": 769,
      "so2_t": 209,
      "co_t": 2970,
      "nox_t": 1861,
      "los_t": 947,
      "prochie_t": 120,
      "data_status": "report",
      "main_sources": "Ковыктинское ГКМ (Газпром), газопереработка"
    },
    {
      "id": "ust_ilimsk_mr",
      "name": "Усть-Илимский МР",
      "short": "Усть-Илимский р-н",
      "type": "район",
      "lat": 58.0000,
      "lon": 102.5000,
      "vsego_t": 6035,
      "tverdye_t": 453,
      "so2_t": 15,
      "co_t": 5469,
      "nox_t": 91,
      "los_t": 5,
      "prochie_t": 2,
      "data_status": "report",
      "main_sources": "Лесозаготовка, котельные"
    },
    {
      "id": "usolsk_mr",
      "name": "Усольский МР",
      "short": "Усольский р-н",
      "type": "район",
      "lat": 52.7700,
      "lon": 103.4500,
      "vsego_t": 5558,
      "tverdye_t": 1016,
      "so2_t": 573,
      "co_t": 608,
      "nox_t": 207,
      "los_t": 263,
      "prochie_t": 2891,
      "data_status": "report",
      "main_sources": "Нефтехимия, угольные котельные"
    },
    {
      "id": "irkutsk_mr",
      "name": "Иркутский МР",
      "short": "Иркутский р-н",
      "type": "район",
      "lat": 52.3300,
      "lon": 104.4000,
      "vsego_t": 5518,
      "tverdye_t": 1127,
      "so2_t": 614,
      "co_t": 1976,
      "nox_t": 201,
      "los_t": 1555,
      "prochie_t": 45,
      "data_status": "report",
      "main_sources": "Иркутский район — промзоны, котельные, логистика"
    },
    {
      "id": "tulun_city",
      "name": "г. Тулун",
      "short": "Тулун",
      "type": "город",
      "lat": 54.5600,
      "lon": 100.5800,
      "vsego_t": 4656,
      "tverdye_t": 1041,
      "so2_t": 1397,
      "co_t": 1606,
      "nox_t": 493,
      "los_t": 36,
      "prochie_t": 83,
      "data_status": "report",
      "main_sources": "Тулунская ТЭЦ (уголь), «Разрез Мугунский»"
    },
    {
      "id": "cheremhovo_mr",
      "name": "Черемховский МР",
      "short": "Черемховский р-н",
      "type": "район",
      "lat": 53.1600,
      "lon": 103.0800,
      "vsego_t": 4056,
      "tverdye_t": 1138,
      "so2_t": 1081,
      "co_t": 1201,
      "nox_t": 556,
      "los_t": 63,
      "prochie_t": 17,
      "data_status": "report",
      "main_sources": "Угольные разрезы, котельные"
    },
    {
      "id": "cheremhovo_city",
      "name": "ГО г. Черемхово",
      "short": "Черемхово",
      "type": "городской округ",
      "lat": 53.1530,
      "lon": 103.0730,
      "vsego_t": 2796,
      "tverdye_t": 1142,
      "so2_t": 946,
      "co_t": 312,
      "nox_t": 342,
      "los_t": 46,
      "prochie_t": 8,
      "data_status": "report",
      "main_sources": "Угольная промышленность, ТЭЦ"
    },
    {
      "id": "bratsk_mr",
      "name": "Братский МР",
      "short": "Братский р-н",
      "type": "район",
      "lat": 56.2500,
      "lon": 101.5000,
      "vsego_t": 2628,
      "tverdye_t": 1100,
      "so2_t": 156,
      "co_t": 817,
      "nox_t": 127,
      "los_t": 186,
      "prochie_t": 242,
      "data_status": "report",
      "main_sources": "Котельные, лесозаготовка"
    },
    {
      "id": "slyudyansk_mr",
      "name": "Слюдянский МР",
      "short": "Слюдянский р-н",
      "type": "район",
      "lat": 51.6600,
      "lon": 103.7200,
      "vsego_t": 2596,
      "tverdye_t": 424,
      "so2_t": 1402,
      "co_t": 233,
      "nox_t": 392,
      "los_t": 101,
      "prochie_t": 44,
      "data_status": "report",
      "main_sources": "КБЖД, цементные предприятия, Култукский завод"
    },
    {
      "id": "chunsk_mo",
      "name": "Чунский МО (округ)",
      "short": "Чунский МО",
      "type": "округ",
      "lat": 55.6700,
      "lon": 99.5500,
      "vsego_t": 2147,
      "tverdye_t": 258,
      "so2_t": 459,
      "co_t": 1193,
      "nox_t": 223,
      "los_t": 8,
      "prochie_t": 6,
      "data_status": "report",
      "main_sources": "Лесозаготовка, ТЭЦ"
    },
    {
      "id": "tulun_mr",
      "name": "Тулунский МР",
      "short": "Тулунский р-н",
      "type": "район",
      "lat": 54.5000,
      "lon": 100.5000,
      "vsego_t": 2100,
      "tverdye_t": 641,
      "so2_t": 157,
      "co_t": 686,
      "nox_t": 493,
      "los_t": 115,
      "prochie_t": 8,
      "data_status": "estimate",
      "main_sources": "Угольные котельные, сельское хозяйство"
    },
    {
      "id": "alari_mr",
      "name": "Аларский МР",
      "short": "Аларский р-н",
      "type": "район",
      "lat": 53.3300,
      "lon": 102.6000,
      "vsego_t": 1716,
      "tverdye_t": 440,
      "so2_t": 381,
      "co_t": 667,
      "nox_t": 182,
      "los_t": 45,
      "prochie_t": 1,
      "data_status": "estimate",
      "main_sources": "Котельные, сельское хозяйство"
    },
    {
      "id": "zalari_mr",
      "name": "Заларинский МР",
      "short": "Заларинский р-н",
      "type": "район",
      "lat": 53.5600,
      "lon": 102.5200,
      "vsego_t": 1244,
      "tverdye_t": 273,
      "so2_t": 320,
      "co_t": 456,
      "nox_t": 60,
      "los_t": 25,
      "prochie_t": 110,
      "data_status": "estimate",
      "main_sources": "Котельные, лесопереработка"
    },
    {
      "id": "zima_mr",
      "name": "Зиминский МР",
      "short": "Зиминский р-н",
      "type": "район",
      "lat": 53.9200,
      "lon": 102.0400,
      "vsego_t": 1208,
      "tverdye_t": 535,
      "so2_t": 128,
      "co_t": 365,
      "nox_t": 63,
      "los_t": 23,
      "prochie_t": 94,
      "data_status": "report",
      "main_sources": "Котельные, мукомольные предприятия"
    },
    {
      "id": "zima_city",
      "name": "Зиминское ГП",
      "short": "Зима",
      "type": "город",
      "lat": 53.9246,
      "lon": 102.0437,
      "vsego_t": 1113,
      "tverdye_t": 44,
      "so2_t": 229,
      "co_t": 627,
      "nox_t": 45,
      "los_t": 42,
      "prochie_t": 126,
      "data_status": "report",
      "main_sources": "Зиминская ТЭЦ, котельные"
    },
    {
      "id": "ust_ilim_mo",
      "name": "Усть-Илимский МО (округ)",
      "short": "Усть-Илимский МО",
      "type": "округ",
      "lat": 58.0500,
      "lon": 102.6000,
      "vsego_t": 818,
      "tverdye_t": 69,
      "so2_t": 39,
      "co_t": 294,
      "nox_t": 338,
      "los_t": 78,
      "prochie_t": 0,
      "data_status": "report",
      "main_sources": "Лесоперерабатывающие предприятия"
    },
    {
      "id": "ehirit_mr",
      "name": "Эхирит-Булагатский МР",
      "short": "Эхирит-Булагатский р-н",
      "type": "район",
      "lat": 52.7500,
      "lon": 104.2000,
      "vsego_t": 762,
      "tverdye_t": 247,
      "so2_t": 67,
      "co_t": 373,
      "nox_t": 47,
      "los_t": 15,
      "prochie_t": 13,
      "data_status": "estimate",
      "main_sources": "Сельское хозяйство, котельные"
    },
    {
      "id": "kuitun_mr",
      "name": "Куйтунский МР",
      "short": "Куйтунский р-н",
      "type": "район",
      "lat": 54.3400,
      "lon": 101.5000,
      "vsego_t": 556,
      "tverdye_t": 353,
      "so2_t": 16,
      "co_t": 121,
      "nox_t": 17,
      "los_t": 41,
      "prochie_t": 8,
      "data_status": "estimate",
      "main_sources": "Угольные котельные"
    },
    {
      "id": "svir_city",
      "name": "ГО г. Свирск",
      "short": "Свирск",
      "type": "городской округ",
      "lat": 53.0800,
      "lon": 103.3300,
      "vsego_t": 526,
      "tverdye_t": 191,
      "so2_t": 35,
      "co_t": 246,
      "nox_t": 45,
      "los_t": 4,
      "prochie_t": 5,
      "data_status": "report",
      "main_sources": "Котельные, мелкая промышленность"
    },
    {
      "id": "osinsk_mr",
      "name": "Осинский МР",
      "short": "Осинский р-н",
      "type": "район",
      "lat": 53.3500,
      "lon": 104.4800,
      "vsego_t": 521,
      "tverdye_t": 157,
      "so2_t": 28,
      "co_t": 280,
      "nox_t": 16,
      "los_t": 5,
      "prochie_t": 35,
      "data_status": "estimate",
      "main_sources": "Сельское хозяйство, котельные"
    },
    {
      "id": "bohan_mr",
      "name": "Боханский МР",
      "short": "Боханский р-н",
      "type": "район",
      "lat": 53.0800,
      "lon": 103.7700,
      "vsego_t": 408,
      "tverdye_t": 182,
      "so2_t": 64,
      "co_t": 150,
      "nox_t": 5,
      "los_t": 6,
      "prochie_t": 1,
      "data_status": "estimate",
      "main_sources": "Котельные, сельское хозяйство"
    },
    {
      "id": "bayandai_mr",
      "name": "Баяндаевский МР",
      "short": "Баяндаевский р-н",
      "type": "район",
      "lat": 53.0700,
      "lon": 105.5200,
      "vsego_t": 399,
      "tverdye_t": 165,
      "so2_t": 32,
      "co_t": 186,
      "nox_t": 8,
      "los_t": 6,
      "prochie_t": 2,
      "data_status": "estimate",
      "main_sources": "Котельные"
    },
    {
      "id": "nukutsk_mr",
      "name": "Нукутский МР",
      "short": "Нукутский р-н",
      "type": "район",
      "lat": 53.2800,
      "lon": 104.0800,
      "vsego_t": 394,
      "tverdye_t": 114,
      "so2_t": 36,
      "co_t": 174,
      "nox_t": 60,
      "los_t": 9,
      "prochie_t": 1,
      "data_status": "estimate",
      "main_sources": "Котельные"
    },
    {
      "id": "mamsko_mr",
      "name": "Мамско-Чуйский МР",
      "short": "Мамско-Чуйский р-н",
      "type": "район",
      "lat": 58.5000,
      "lon": 114.0000,
      "vsego_t": 382,
      "tverdye_t": 100,
      "so2_t": 11,
      "co_t": 117,
      "nox_t": 117,
      "los_t": 30,
      "prochie_t": 7,
      "data_status": "estimate",
      "main_sources": "Слюдяная промышленность, дизель-генераторы"
    },
    {
      "id": "olhon_mr",
      "name": "Ольхонский МР",
      "short": "Ольхонский р-н",
      "type": "район",
      "lat": 52.8000,
      "lon": 106.3000,
      "vsego_t": 383,
      "tverdye_t": 13,
      "so2_t": 1,
      "co_t": 32,
      "nox_t": 8,
      "los_t": 329,
      "prochie_t": 0,
      "data_status": "estimate",
      "main_sources": "Туристическая инфраструктура, котельные"
    },
    {
      "id": "kachug_mr",
      "name": "Качугский МР",
      "short": "Качугский р-н",
      "type": "район",
      "lat": 53.9500,
      "lon": 105.8700,
      "vsego_t": 364,
      "tverdye_t": 71,
      "so2_t": 13,
      "co_t": 256,
      "nox_t": 17,
      "los_t": 7,
      "prochie_t": 0,
      "data_status": "estimate",
      "main_sources": "Котельные, лесозаготовка"
    },
    {
      "id": "ust_udink_mr",
      "name": "Усть-Удинский МР",
      "short": "Усть-Удинский р-н",
      "type": "район",
      "lat": 54.1600,
      "lon": 103.7000,
      "vsego_t": 288,
      "tverdye_t": 35,
      "so2_t": 34,
      "co_t": 201,
      "nox_t": 15,
      "los_t": 3,
      "prochie_t": 0,
      "data_status": "estimate",
      "main_sources": "Котельные"
    },
    {
      "id": "chunsk_mr",
      "name": "Чунский МР",
      "short": "Чунский р-н",
      "type": "район",
      "lat": 55.6000,
      "lon": 99.5000,
      "vsego_t": 158,
      "tverdye_t": 21,
      "so2_t": 0,
      "co_t": 135,
      "nox_t": 2,
      "los_t": 0,
      "prochie_t": 0,
      "data_status": "estimate",
      "main_sources": "Котельные"
    },
    {
      "id": "balagan_mr",
      "name": "Балаганский МР",
      "short": "Балаганский р-н",
      "type": "район",
      "lat": 54.0000,
      "lon": 103.1000,
      "vsego_t": 106,
      "tverdye_t": 14,
      "so2_t": 25,
      "co_t": 63,
      "nox_t": 4,
      "los_t": 0,
      "prochie_t": 0,
      "data_status": "estimate",
      "main_sources": "Котельные"
    }
  ]
}
