{
  "version": "1.0",
  "year": 2024,
  "form": "2-ТП Воздух",
  "source": "Росприроднадзор (rpn.gov.ru)",
  "published": "2025-03",
  "units": "тонны/год",
  "fields": ["vsego_t", "tverdye_t", "so2_t", "co_t", "nox_t", "los_t", "prochie_t"],
  "note": "Данные за 2024 г. Кемеровская область — Кузбасс. Углеводороды (без ЛОС) включены в «прочие». Два Ленинск-Кузнецких МО (ОКТМО 32513000 + 32514000) объединены.",
  "municipalities": [
    {
      "id": "kemerovo_city",
      "name": "г. Кемерово",
      "short": "Кемерово",
      "type": "город",
      "lat": 55.354,
      "lon": 86.088,
      "vsego_t": 59080,
      "tverdye_t": 13869,
      "so2_t": 13969,
      "co_t": 14151,
      "nox_t": 13230,
      "los_t": 1342,
      "prochie_t": 2519,
      "data_status": "report",
      "main_sources": "Кемеровская ГРЭС, «Кокс», «Азот», ТЭЦ-1, химическая промышленность"
    },
    {
      "id": "novokuznetsk_city",
      "name": "г. Новокузнецк",
      "short": "Новокузнецк",
      "type": "город",
      "lat": 53.757,
      "lon": 87.136,
      "vsego_t": 256683,
      "tverdye_t": 22530,
      "so2_t": 34328,
      "co_t": 175378,
      "nox_t": 14438,
      "los_t": 915,
      "prochie_t": 9093,
      "data_status": "report",
      "main_sources": "ЕВРАЗ ЗСМК, ЕВРАЗ НКМК, Кузнецкая ТЭЦ, НкАЗ (алюминий)"
    },
    {
      "id": "novokuznetsk_mo",
      "name": "Новокузнецкий МО",
      "short": "Новокузнецкий МО",
      "type": "округ",
      "lat": 53.85,
      "lon": 87.25,
      "vsego_t": 501385,
      "tverdye_t": 16343,
      "so2_t": 2195,
      "co_t": 16679,
      "nox_t": 12191,
      "los_t": 3568,
      "prochie_t": 450409,
      "data_status": "report",
      "main_sources": "Угольные разрезы, шахты (метан, CO)"
    },
    {
      "id": "mezhdurechensk_mo",
      "name": "Междуреченский МО",
      "short": "Междуреченский МО",
      "type": "округ",
      "lat": 53.75,
      "lon": 87.95,
      "vsego_t": 149516,
      "tverdye_t": 8188,
      "so2_t": 885,
      "co_t": 4373,
      "nox_t": 2774,
      "los_t": 391,
      "prochie_t": 132904,
      "data_status": "estimate",
      "main_sources": "Угольные разрезы (Распадская, Междуречье)"
    },
    {
      "id": "kaltan_city",
      "name": "г. Калтан",
      "short": "Калтан",
      "type": "город",
      "lat": 53.523,
      "lon": 87.277,
      "vsego_t": 88547,
      "tverdye_t": 3154,
      "so2_t": 2194,
      "co_t": 1674,
      "nox_t": 3407,
      "los_t": 65,
      "prochie_t": 78053,
      "data_status": "estimate",
      "main_sources": "Южно-Кузбасская ГРЭС, угольные разрезы"
    },
    {
      "id": "leninsk_kuznetsky_mo",
      "name": "Ленинск-Кузнецкий МО",
      "short": "Ленинск-Кузнецкий МО",
      "type": "округ",
      "lat": 54.65,
      "lon": 86.10,
      "vsego_t": 83562,
      "tverdye_t": 2087,
      "so2_t": 605,
      "co_t": 3113,
      "nox_t": 1809,
      "los_t": 456,
      "prochie_t": 75491,
      "data_status": "estimate",
      "main_sources": "Угольные шахты (метан)"
    },
    {
      "id": "belovo_city",
      "name": "г. Белово",
      "short": "Белово",
      "type": "город",
      "lat": 54.415,
      "lon": 86.298,
      "vsego_t": 76835,
      "tverdye_t": 28645,
      "so2_t": 12706,
      "co_t": 3800,
      "nox_t": 17660,
      "los_t": 805,
      "prochie_t": 13220,
      "data_status": "report",
      "main_sources": "Беловская ГРЭС, угольные шахты"
    },
    {
      "id": "belovsky_mo",
      "name": "Беловский МО",
      "short": "Беловский МО",
      "type": "округ",
      "lat": 54.35,
      "lon": 86.40,
      "vsego_t": 71857,
      "tverdye_t": 7974,
      "so2_t": 1144,
      "co_t": 5277,
      "nox_t": 5452,
      "los_t": 951,
      "prochie_t": 51060,
      "data_status": "estimate",
      "main_sources": "Угольные шахты (метан), разрезы"
    },
    {
      "id": "osinniki_city",
      "name": "г. Осинники",
      "short": "Осинники",
      "type": "город",
      "lat": 53.587,
      "lon": 87.336,
      "vsego_t": 50928,
      "tverdye_t": 612,
      "so2_t": 383,
      "co_t": 1291,
      "nox_t": 269,
      "los_t": 27,
      "prochie_t": 48345,
      "data_status": "estimate",
      "main_sources": "Угольные шахты (метан)"
    },
    {
      "id": "prokopevsk_mo",
      "name": "Прокопьевский МО",
      "short": "Прокопьевский МО",
      "type": "округ",
      "lat": 53.95,
      "lon": 86.65,
      "vsego_t": 43073,
      "tverdye_t": 12080,
      "so2_t": 1151,
      "co_t": 9314,
      "nox_t": 5945,
      "los_t": 1659,
      "prochie_t": 12926,
      "data_status": "estimate",
      "main_sources": "Угольные шахты, разрезы"
    },
    {
      "id": "myski_city",
      "name": "г. Мыски",
      "short": "Мыски",
      "type": "город",
      "lat": 53.708,
      "lon": 87.812,
      "vsego_t": 39659,
      "tverdye_t": 13791,
      "so2_t": 9841,
      "co_t": 2474,
      "nox_t": 12915,
      "los_t": 428,
      "prochie_t": 210,
      "data_status": "estimate",
      "main_sources": "Томь-Усинская ГРЭС, угольные разрезы"
    },
    {
      "id": "kemerovo_mo",
      "name": "Кемеровский МО",
      "short": "Кемеровский МО",
      "type": "округ",
      "lat": 55.25,
      "lon": 86.20,
      "vsego_t": 32474,
      "tverdye_t": 7389,
      "so2_t": 1138,
      "co_t": 5243,
      "nox_t": 5730,
      "los_t": 812,
      "prochie_t": 12163,
      "data_status": "estimate",
      "main_sources": "Угольные разрезы, шахты"
    },
    {
      "id": "kiselevsk_city",
      "name": "г. Киселёвск",
      "short": "Киселёвск",
      "type": "город",
      "lat": 54.001,
      "lon": 86.635,
      "vsego_t": 19284,
      "tverdye_t": 6045,
      "so2_t": 1060,
      "co_t": 6803,
      "nox_t": 3325,
      "los_t": 784,
      "prochie_t": 1268,
      "data_status": "estimate",
      "main_sources": "Угольные шахты, ТЭЦ"
    },
    {
      "id": "prokopevsk_city",
      "name": "г. Прокопьевск",
      "short": "Прокопьевск",
      "type": "город",
      "lat": 53.884,
      "lon": 86.718,
      "vsego_t": 13434,
      "tverdye_t": 3251,
      "so2_t": 1350,
      "co_t": 6099,
      "nox_t": 2005,
      "los_t": 483,
      "prochie_t": 245,
      "data_status": "estimate",
      "main_sources": "Угольные шахты, ТЭЦ, промышленность"
    },
    {
      "id": "anzhero_sudzhensk_city",
      "name": "г. Анжеро-Судженск",
      "short": "Анжеро-Судженск",
      "type": "город",
      "lat": 56.081,
      "lon": 86.031,
      "vsego_t": 9998,
      "tverdye_t": 1472,
      "so2_t": 1005,
      "co_t": 3287,
      "nox_t": 941,
      "los_t": 3248,
      "prochie_t": 45,
      "data_status": "estimate",
      "main_sources": "Угольные шахты, химзавод"
    },
    {
      "id": "berezovsky_city",
      "name": "г. Берёзовский",
      "short": "Берёзовский",
      "type": "город",
      "lat": 55.572,
      "lon": 86.243,
      "vsego_t": 9818,
      "tverdye_t": 992,
      "so2_t": 254,
      "co_t": 1073,
      "nox_t": 334,
      "los_t": 34,
      "prochie_t": 7131,
      "data_status": "estimate",
      "main_sources": "Угольные разрезы"
    },
    {
      "id": "polysaevo_city",
      "name": "г. Полысаево",
      "short": "Полысаево",
      "type": "город",
      "lat": 54.598,
      "lon": 86.275,
      "vsego_t": 9487,
      "tverdye_t": 128,
      "so2_t": 154,
      "co_t": 593,
      "nox_t": 162,
      "los_t": 15,
      "prochie_t": 8436,
      "data_status": "estimate",
      "main_sources": "Угольные шахты (метан)"
    },
    {
      "id": "topkinsky_mo",
      "name": "Топкинский МО",
      "short": "Топкинский МО",
      "type": "округ",
      "lat": 55.280,
      "lon": 85.620,
      "vsego_t": 8552,
      "tverdye_t": 3211,
      "so2_t": 186,
      "co_t": 1461,
      "nox_t": 3653,
      "los_t": 39,
      "prochie_t": 1,
      "data_status": "estimate",
      "main_sources": "Топкинский цементный завод"
    },
    {
      "id": "guryevsky_mo",
      "name": "Гурьевский МО",
      "short": "Гурьевский МО",
      "type": "округ",
      "lat": 54.284,
      "lon": 85.944,
      "vsego_t": 8047,
      "tverdye_t": 2833,
      "so2_t": 657,
      "co_t": 3094,
      "nox_t": 1100,
      "los_t": 167,
      "prochie_t": 195,
      "data_status": "estimate",
      "main_sources": "Гурьевский металлургический завод"
    },
    {
      "id": "yurga_city",
      "name": "г. Юрга",
      "short": "Юрга",
      "type": "город",
      "lat": 55.722,
      "lon": 84.930,
      "vsego_t": 5108,
      "tverdye_t": 1527,
      "so2_t": 691,
      "co_t": 1394,
      "nox_t": 1085,
      "los_t": 261,
      "prochie_t": 150,
      "data_status": "estimate",
      "main_sources": "Юргинский машзавод, ТЭЦ"
    },
    {
      "id": "tisulsky_mo",
      "name": "Тисульский МО",
      "short": "Тисульский МО",
      "type": "округ",
      "lat": 55.760,
      "lon": 88.330,
      "vsego_t": 5121,
      "tverdye_t": 990,
      "so2_t": 317,
      "co_t": 2473,
      "nox_t": 1053,
      "los_t": 59,
      "prochie_t": 229,
      "data_status": "estimate",
      "main_sources": "Золотодобыча, котельные"
    },
    {
      "id": "mariinsk_mo",
      "name": "Мариинский МО",
      "short": "Мариинский МО",
      "type": "округ",
      "lat": 56.210,
      "lon": 87.750,
      "vsego_t": 4317,
      "tverdye_t": 882,
      "so2_t": 497,
      "co_t": 2593,
      "nox_t": 253,
      "los_t": 26,
      "prochie_t": 67,
      "data_status": "estimate",
      "main_sources": "Котельные, лесопереработка"
    },
    {
      "id": "leninsk_kuznetsky_city",
      "name": "г. Ленинск-Кузнецкий",
      "short": "Ленинск-Кузнецкий",
      "type": "город",
      "lat": 54.657,
      "lon": 86.174,
      "vsego_t": 3807,
      "tverdye_t": 507,
      "so2_t": 225,
      "co_t": 1070,
      "nox_t": 299,
      "los_t": 72,
      "prochie_t": 1634,
      "data_status": "estimate",
      "main_sources": "Угольные шахты, котельные"
    },
    {
      "id": "yaysky_mo",
      "name": "Яйский МО",
      "short": "Яйский МО",
      "type": "округ",
      "lat": 56.270,
      "lon": 86.420,
      "vsego_t": 2582,
      "tverdye_t": 708,
      "so2_t": 292,
      "co_t": 909,
      "nox_t": 541,
      "los_t": 130,
      "prochie_t": 2,
      "data_status": "estimate",
      "main_sources": "Яйский НПЗ, котельные"
    },
    {
      "id": "tashtogol_mr",
      "name": "Таштагольский МР",
      "short": "Таштагольский МР",
      "type": "район",
      "lat": 52.760,
      "lon": 87.870,
      "vsego_t": 2532,
      "tverdye_t": 1162,
      "so2_t": 131,
      "co_t": 607,
      "nox_t": 257,
      "los_t": 268,
      "prochie_t": 107,
      "data_status": "estimate",
      "main_sources": "Горнодобыча (Шерегеш, Казское месторождение)"
    },
    {
      "id": "yashkinsky_mo",
      "name": "Яшкинский МО",
      "short": "Яшкинский МО",
      "type": "округ",
      "lat": 55.870,
      "lon": 85.430,
      "vsego_t": 2298,
      "tverdye_t": 723,
      "so2_t": 145,
      "co_t": 798,
      "nox_t": 235,
      "los_t": 74,
      "prochie_t": 324,
      "data_status": "estimate",
      "main_sources": "Яшкинский цемзавод, пищевая промышленность"
    },
    {
      "id": "tyazhinsky_mo",
      "name": "Тяжинский МО",
      "short": "Тяжинский МО",
      "type": "округ",
      "lat": 56.070,
      "lon": 87.630,
      "vsego_t": 2145,
      "tverdye_t": 488,
      "so2_t": 150,
      "co_t": 1237,
      "nox_t": 72,
      "los_t": 122,
      "prochie_t": 75,
      "data_status": "estimate",
      "main_sources": "Котельные"
    },
    {
      "id": "promyshlennovsk_mo",
      "name": "Промышленновский МО",
      "short": "Промышленновский МО",
      "type": "округ",
      "lat": 54.930,
      "lon": 85.640,
      "vsego_t": 1794,
      "tverdye_t": 474,
      "so2_t": 184,
      "co_t": 691,
      "nox_t": 203,
      "los_t": 43,
      "prochie_t": 199,
      "data_status": "estimate",
      "main_sources": "Сельское хозяйство, котельные"
    },
    {
      "id": "krapivinsky_mo",
      "name": "Крапивинский МО",
      "short": "Крапивинский МО",
      "type": "округ",
      "lat": 54.980,
      "lon": 86.310,
      "vsego_t": 1191,
      "tverdye_t": 393,
      "so2_t": 66,
      "co_t": 636,
      "nox_t": 85,
      "los_t": 4,
      "prochie_t": 8,
      "data_status": "estimate",
      "main_sources": "Котельные, лесное хозяйство"
    },
    {
      "id": "izhmorsky_mo",
      "name": "Ижморский МО",
      "short": "Ижморский МО",
      "type": "округ",
      "lat": 56.169,
      "lon": 86.630,
      "vsego_t": 1186,
      "tverdye_t": 260,
      "so2_t": 67,
      "co_t": 769,
      "nox_t": 87,
      "los_t": 3,
      "prochie_t": 0,
      "data_status": "estimate",
      "main_sources": "Котельные"
    },
    {
      "id": "chebulinsky_mo",
      "name": "Чебулинский МО",
      "short": "Чебулинский МО",
      "type": "округ",
      "lat": 55.950,
      "lon": 87.520,
      "vsego_t": 999,
      "tverdye_t": 463,
      "so2_t": 93,
      "co_t": 321,
      "nox_t": 46,
      "los_t": 8,
      "prochie_t": 68,
      "data_status": "estimate",
      "main_sources": "Котельные"
    },
    {
      "id": "taiga_city",
      "name": "г. Тайга",
      "short": "Тайга",
      "type": "город",
      "lat": 56.063,
      "lon": 85.615,
      "vsego_t": 858,
      "tverdye_t": 184,
      "so2_t": 107,
      "co_t": 287,
      "nox_t": 194,
      "los_t": 45,
      "prochie_t": 40,
      "data_status": "estimate",
      "main_sources": "Ж/д узел, котельные"
    },
    {
      "id": "yurginsky_mo",
      "name": "Юргинский МО",
      "short": "Юргинский МО",
      "type": "округ",
      "lat": 55.68,
      "lon": 85.00,
      "vsego_t": 839,
      "tverdye_t": 214,
      "so2_t": 39,
      "co_t": 191,
      "nox_t": 22,
      "los_t": 2,
      "prochie_t": 370,
      "data_status": "estimate",
      "main_sources": "Сельское хозяйство"
    },
    {
      "id": "mezhdurechensk_city",
      "name": "г. Междуреченск",
      "short": "Междуреченск",
      "type": "город",
      "lat": 53.694,
      "lon": 88.060,
      "vsego_t": 440,
      "tverdye_t": 172,
      "so2_t": 18,
      "co_t": 107,
      "nox_t": 73,
      "los_t": 45,
      "prochie_t": 24,
      "data_status": "estimate",
      "main_sources": "Котельные, городская инфраструктура"
    }
  ]
}
