# =============================================================================
# Профиль города — Макрорайон Сбер-Сити (Рублёво-Архангельское)
# =============================================================================
# Московская область / Западная Москва. Прилегающие территории:
# Кунцево, Строгино (Москва), Красногорск, Одинцово (Московская область).
# Запуск: CITY_PROFILE=city_profile_sbercity bot serve
# =============================================================================

city:
  id: "sbercity"
  name: "Сбер-Сити"
  name_genitive: "Сбер-Сити"
  name_prepositional: "Сбер-Сити"
  slug: "moscow_oblast"
  yandex_region_id: 213             # Москва и область
  timezone: "Europe/Moscow"
  utc_offset: 3

  center:
    lat: 55.7920
    lon: 37.3500

  bbox:
    lat_min: 55.67
    lat_max: 55.84
    lon_min: 37.24
    lon_max: 37.44

# ── Территории (вместо административных районов) ──────────────────────────────
# Сбер-Сити — макрорайон, «районы» = прилегающие муниципальные образования
districts:
  "Кунцево":          ["кунцев"]
  "Строгино":         ["строгин"]
  "Красногорск":      ["красногорск"]
  "Одинцовский":      ["одинцов", "одинцово"]

sub_districts: []

district_coords:
  "Кунцево":          {lon: 37.3900, lat: 55.7310}
  "Строгино":         {lon: 37.4028, lat: 55.8038}
  "Красногорск":      {lon: 37.3302, lat: 55.8204}
  "Одинцовский":      {lon: 37.2784, lat: 55.6794}

city_stopwords:
  - "сбер-сити"
  - "сберсити"
  - "сбер сити"
  - "рублёво"
  - "рублево"
  - "архангельское"

# ── Возможности города ────────────────────────────────────────────────────────
features:
  has_metro: false

  has_airport: true
  airport_iata: "SVO"
  airport_icao: "UUEE"
  airport_name: "Аэропорт Шереметьево"
  airport_keywords_primary:
    - "аэропорт"
    - "шереметьев"
    - "авиарейс"
    - "вылет"
    - "прилёт"
    - "прилет"
    - "самолёт"
    - "самолет"
    - "svo"
  airport_keywords_full:
    - "аэропорт"
    - "шереметьев"
    - "авиарейс"
    - "вылет"
    - "прилёт"
    - "прилет"
    - "самолёт"
    - "самолет"
    - "svo"
    - "аэровокзал"
    - "аэроэкспресс"

# ── Станции экологического мониторинга ───────────────────────────────────────
# По одной точке на каждую территорию — координаты центра
ecology_stations:
  - station_id: "sbercity_kuntsevo"
    district: "Кунцево"
    address: "Кунцево, Москва"
    lat: 55.7310
    lon: 37.3900

  - station_id: "sbercity_strogino"
    district: "Строгино"
    address: "Строгино, Москва"
    lat: 55.8038
    lon: 37.4028

  - station_id: "sbercity_krasnogorsk"
    district: "Красногорск"
    address: "Красногорск, МО"
    lat: 55.8204
    lon: 37.3302

  - station_id: "sbercity_odintsovo"
    district: "Одинцовский"
    address: "Одинцово, МО"
    lat: 55.6794
    lon: 37.2784

# ── Открытые данные ───────────────────────────────────────────────────────────
opendata_base_url: ""
knowledge_base: ""

# ── Статические датасеты ──────────────────────────────────────────────────────
static_datasets:

  emissions:
    enabled: true
    file: "data/cities/sbercity/emissions_2tp.json"
    scope: "Макрорайон Сбер-Сити и прилегающие территории"
    municipalities_count: 4
    year: 2024
    form: "2-ТП Воздух"
    source: "Росприроднадзор (rpn.gov.ru)"
    published: "2025-03"

  heat_sources:
    enabled: false
    file: null
    note: "Газовые котельные — основной источник тепла в макрорайоне"

  metro:
    enabled: false
    file: null
    note: "Метро отсутствует на территории макрорайона"

  airport:
    enabled: true
    file: "data/cities/sbercity/airport.json"
    iata: "SVO"
    name: "Шереметьево"
