# =============================================================================
# Профиль города — Красноярск
# =============================================================================
# Для запуска: CITY_PROFILE=city_profile_krasnoyarsk bot serve
# =============================================================================

city:
  id: "krasnoyarsk"
  name: "Красноярск"
  name_genitive: "Красноярска"
  name_prepositional: "Красноярске"
  slug: "krasnoyarsk"
  yandex_region_id: 62              # Яндекс.Пробки region ID
  timezone: "Asia/Krasnoyarsk"
  utc_offset: 7

  center:
    lat: 56.0153
    lon: 92.8932

  bbox:
    lat_min: 55.75
    lat_max: 56.25
    lon_min: 92.55
    lon_max: 93.15

# ── Административные районы ───────────────────────────────────────────────────
districts:
  "Железнодорожный район":  ["железнодорожн"]
  "Кировский район":        ["кировск"]
  "Ленинский район":        ["ленинск"]
  "Октябрьский район":      ["октябрьск"]
  "Свердловский район":     ["свердловск"]
  "Советский район":        ["советск"]
  "Центральный район":      ["централь", "центр"]

sub_districts: []

district_coords:
  "Железнодорожный район":  {lon: 92.8498, lat: 56.0253}
  "Кировский район":        {lon: 92.8310, lat: 55.9973}
  "Ленинский район":        {lon: 92.8010, lat: 55.9702}
  "Октябрьский район":      {lon: 92.9302, lat: 56.0127}
  "Свердловский район":     {lon: 93.0008, lat: 56.0450}
  "Советский район":        {lon: 92.9780, lat: 55.9840}
  "Центральный район":      {lon: 92.8932, lat: 56.0153}

city_stopwords:
  - "красноярск"
  - "красноярске"

# ── Возможности города ────────────────────────────────────────────────────────
features:
  # Метро строится (первая линия), пока не открыто
  has_metro: false
  metro_note: "Красноярский метрополитен находится в стадии строительства"

  has_airport: true
  airport_iata: "KJA"
  airport_icao: "UNKL"
  airport_name: "Аэропорт Емельяново"
  airport_keywords_primary:
    - "аэропорт"
    - "емельяново"
    - "авиарейс"
    - "вылет"
    - "прилёт"
    - "прилет"
    - "самолёт"
    - "самолет"
    - "kja"
  airport_keywords_full:
    - "аэропорт"
    - "емельяново"
    - "авиарейс"
    - "вылет"
    - "прилёт"
    - "прилет"
    - "самолёт"
    - "самолет"
    - "kja"
    - "аэровокзал"

  power_outages_url: "http://www.admkrsk.ru/citytoday/municipal/Pages/default.aspx"
  power_outages_base: "http://www.admkrsk.ru"

# ── Станции экологического мониторинга ───────────────────────────────────────
ecology_stations:
  - station_id: "krs_central"
    district: "Центральный район"
    address: "Центр Красноярска"
    lat: 56.0153
    lon: 92.8932

  - station_id: "krs_zhd"
    district: "Железнодорожный район"
    address: "Железнодорожный р-н"
    lat: 56.0253
    lon: 92.8498

  - station_id: "krs_kirov"
    district: "Кировский район"
    address: "Кировский р-н"
    lat: 55.9973
    lon: 92.8310

  - station_id: "krs_leninsky"
    district: "Ленинский район"
    address: "Ленинский р-н"
    lat: 55.9702
    lon: 92.8010

  - station_id: "krs_october"
    district: "Октябрьский район"
    address: "Октябрьский р-н"
    lat: 56.0127
    lon: 92.9302

  - station_id: "krs_sverdlov"
    district: "Свердловский район"
    address: "Свердловский р-н"
    lat: 56.0450
    lon: 93.0008

  - station_id: "krs_soviet"
    district: "Советский район"
    address: "Советский р-н"
    lat: 55.9840
    lon: 92.9780

# ── Открытые данные ───────────────────────────────────────────────────────────
opendata_base_url: "https://www.admkrsk.ru"
knowledge_base: ""

# ── Статические датасеты ──────────────────────────────────────────────────────
static_datasets:

  emissions:
    enabled: true
    file: "data/cities/krasnoyarsk/emissions_2tp.json"
    note: "2-ТП Воздух 2024, Красноярский край, 61 МО"

  heat_sources:
    enabled: false
    file: ""
    note: "Данные о тепловых источниках Красноярска ещё не добавлены"

  metro:
    enabled: false
    note: "Красноярский метрополитен строится, данных нет"

  airport:
    enabled: true
    file: "data/cities/krasnoyarsk/airport.json"
