{
  "version": "1.0",
  "year": 2024,
  "form": "2-ТП Воздух",
  "source": "Росприроднадзор (rpn.gov.ru)",
  "published": "2025-03",
  "units": "тонны/год",
  "fields": ["vsego_t", "tverdye_t", "so2_t", "co_t", "nox_t", "los_t", "prochie_t"],
  "note": "Данные за 2024 г. опубликованы в марте 2025 г. Значения г. Новосибирск — из официального отчёта. Значения остальных МО требуют верификации по отчёту 2-ТП Воздух НСО 2024.",
  "municipalities": [
    {
      "id": "novosibirsk",
      "name": "г. Новосибирск",
      "short": "Новосибирск",
      "type": "город",
      "lat": 54.989,
      "lon": 82.908,
      "vsego_t": 74217,
      "tverdye_t": 5197,
      "so2_t": 28403,
      "co_t": 11498,
      "nox_t": 17302,
      "los_t": 4800,
      "prochie_t": 7017,
      "data_status": "report",
      "main_sources": "ТЭЦ-2, ТЭЦ-3, ТЭЦ-4, ТЭЦ-5 (уголь), промышленность"
    },
    {
      "id": "iskitimsky_raion",
      "name": "Искитимский р-н",
      "short": "Искитимский",
      "type": "район",
      "lat": 54.620,
      "lon": 83.150,
      "vsego_t": 19840,
      "tverdye_t": 8960,
      "so2_t": 4310,
      "co_t": 3280,
      "nox_t": 1970,
      "los_t": 840,
      "prochie_t": 480,
      "data_status": "estimate",
      "main_sources": "Искитимцемент (цементный завод), известняковые карьеры"
    },
    {
      "id": "toguchinsky_raion",
      "name": "Тогучинский р-н",
      "short": "Тогучинский",
      "type": "район",
      "lat": 55.232,
      "lon": 84.397,
      "vsego_t": 14200,
      "tverdye_t": 5600,
      "so2_t": 4150,
      "co_t": 2300,
      "nox_t": 1500,
      "los_t": 420,
      "prochie_t": 230,
      "data_status": "estimate",
      "main_sources": "Горловский угольный разрез, Линёвский завод стройматериалов"
    },
    {
      "id": "iskitim",
      "name": "г. Искитим",
      "short": "Искитим",
      "type": "город",
      "lat": 54.642,
      "lon": 83.206,
      "vsego_t": 8500,
      "tverdye_t": 1820,
      "so2_t": 2450,
      "co_t": 2080,
      "nox_t": 1490,
      "los_t": 410,
      "prochie_t": 250,
      "data_status": "estimate",
      "main_sources": "Теплоснабжение, промышленность"
    },
    {
      "id": "kuibyshevsky_raion",
      "name": "Куйбышевский р-н",
      "short": "Куйбышевский",
      "type": "район",
      "lat": 55.420,
      "lon": 78.270,
      "vsego_t": 6900,
      "tverdye_t": 720,
      "so2_t": 2540,
      "co_t": 2180,
      "nox_t": 1120,
      "los_t": 230,
      "prochie_t": 110,
      "data_status": "estimate",
      "main_sources": "Барабинская ТЭЦ (СГК), котельные"
    },
    {
      "id": "kuibyshev",
      "name": "г. Куйбышев",
      "short": "Куйбышев",
      "type": "город",
      "lat": 55.442,
      "lon": 78.320,
      "vsego_t": 5200,
      "tverdye_t": 580,
      "so2_t": 1870,
      "co_t": 1740,
      "nox_t": 860,
      "los_t": 95,
      "prochie_t": 55,
      "data_status": "estimate",
      "main_sources": "Котельные, теплоснабжение"
    },
    {
      "id": "novosibirsky_raion",
      "name": "Новосибирский р-н",
      "short": "Новосибирский р-н",
      "type": "район",
      "lat": 54.920,
      "lon": 82.740,
      "vsego_t": 4500,
      "tverdye_t": 640,
      "so2_t": 1400,
      "co_t": 1120,
      "nox_t": 890,
      "los_t": 310,
      "prochie_t": 140,
      "data_status": "estimate",
      "main_sources": "Промышленность пригорода, котельные"
    },
    {
      "id": "berdsk",
      "name": "г. Бердск",
      "short": "Бердск",
      "type": "город",
      "lat": 54.760,
      "lon": 83.103,
      "vsego_t": 3700,
      "tverdye_t": 430,
      "so2_t": 1050,
      "co_t": 1300,
      "nox_t": 660,
      "los_t": 180,
      "prochie_t": 80,
      "data_status": "estimate",
      "main_sources": "Котельные, лёгкая промышленность, фармацевтика"
    },
    {
      "id": "cherepanovsky_raion",
      "name": "Черепановский р-н",
      "short": "Черепановский",
      "type": "район",
      "lat": 54.223,
      "lon": 83.367,
      "vsego_t": 3800,
      "tverdye_t": 520,
      "so2_t": 1200,
      "co_t": 1100,
      "nox_t": 680,
      "los_t": 200,
      "prochie_t": 100,
      "data_status": "estimate",
      "main_sources": "Угольные котельные, с/х предприятия"
    },
    {
      "id": "tatarsky_raion",
      "name": "Татарский р-н",
      "short": "Татарский",
      "type": "район",
      "lat": 55.217,
      "lon": 75.975,
      "vsego_t": 3400,
      "tverdye_t": 460,
      "so2_t": 980,
      "co_t": 1100,
      "nox_t": 600,
      "los_t": 180,
      "prochie_t": 80,
      "data_status": "estimate",
      "main_sources": "Котельные, с/х предприятия"
    },
    {
      "id": "maslyaninskiy_raion",
      "name": "Маслянинский р-н",
      "short": "Маслянинский",
      "type": "район",
      "lat": 54.343,
      "lon": 84.212,
      "vsego_t": 3200,
      "tverdye_t": 820,
      "so2_t": 890,
      "co_t": 920,
      "nox_t": 420,
      "los_t": 90,
      "prochie_t": 60,
      "data_status": "estimate",
      "main_sources": "Добыча полезных ископаемых, котельные"
    },
    {
      "id": "karasuksky_raion",
      "name": "Карасукский р-н",
      "short": "Карасукский",
      "type": "район",
      "lat": 53.737,
      "lon": 78.047,
      "vsego_t": 2800,
      "tverdye_t": 380,
      "so2_t": 820,
      "co_t": 890,
      "nox_t": 490,
      "los_t": 150,
      "prochie_t": 70,
      "data_status": "estimate",
      "main_sources": "Котельные, с/х предприятия"
    },
    {
      "id": "krasnozersky_raion",
      "name": "Краснозёрский р-н",
      "short": "Краснозёрский",
      "type": "район",
      "lat": 53.985,
      "lon": 79.218,
      "vsego_t": 1800,
      "tverdye_t": 250,
      "so2_t": 520,
      "co_t": 580,
      "nox_t": 320,
      "los_t": 90,
      "prochie_t": 40,
      "data_status": "estimate",
      "main_sources": "Котельные, с/х предприятия"
    },
    {
      "id": "kolyvanksy_raion",
      "name": "Колыванский р-н",
      "short": "Колыванский",
      "type": "район",
      "lat": 55.300,
      "lon": 82.747,
      "vsego_t": 2400,
      "tverdye_t": 340,
      "so2_t": 680,
      "co_t": 760,
      "nox_t": 440,
      "los_t": 120,
      "prochie_t": 60,
      "data_status": "estimate",
      "main_sources": "Котельные, промышленность"
    },
    {
      "id": "moshkovsky_raion",
      "name": "Мошковский р-н",
      "short": "Мошковский",
      "type": "район",
      "lat": 55.307,
      "lon": 82.574,
      "vsego_t": 2200,
      "tverdye_t": 310,
      "so2_t": 620,
      "co_t": 700,
      "nox_t": 400,
      "los_t": 110,
      "prochie_t": 60,
      "data_status": "estimate",
      "main_sources": "Котельные, с/х предприятия"
    },
    {
      "id": "chulymsky_raion",
      "name": "Чулымский р-н",
      "short": "Чулымский",
      "type": "район",
      "lat": 55.090,
      "lon": 80.952,
      "vsego_t": 1800,
      "tverdye_t": 260,
      "so2_t": 520,
      "co_t": 560,
      "nox_t": 320,
      "los_t": 90,
      "prochie_t": 50,
      "data_status": "estimate",
      "main_sources": "Котельные"
    },
    {
      "id": "barabinsky_raion",
      "name": "Барабинский р-н",
      "short": "Барабинский",
      "type": "район",
      "lat": 55.354,
      "lon": 78.348,
      "vsego_t": 1600,
      "tverdye_t": 230,
      "so2_t": 450,
      "co_t": 510,
      "nox_t": 290,
      "los_t": 80,
      "prochie_t": 40,
      "data_status": "estimate",
      "main_sources": "Котельные, с/х"
    },
    {
      "id": "kochenovsky_raion",
      "name": "Коченёвский р-н",
      "short": "Коченёвский",
      "type": "район",
      "lat": 55.021,
      "lon": 82.199,
      "vsego_t": 1500,
      "tverdye_t": 210,
      "so2_t": 420,
      "co_t": 480,
      "nox_t": 280,
      "los_t": 80,
      "prochie_t": 30,
      "data_status": "estimate",
      "main_sources": "Котельные, с/х предприятия"
    },
    {
      "id": "bolotninskiy_raion",
      "name": "Болотнинский р-н",
      "short": "Болотнинский",
      "type": "район",
      "lat": 55.673,
      "lon": 84.395,
      "vsego_t": 2000,
      "tverdye_t": 280,
      "so2_t": 560,
      "co_t": 640,
      "nox_t": 370,
      "los_t": 100,
      "prochie_t": 50,
      "data_status": "estimate",
      "main_sources": "Котельные"
    },
    {
      "id": "ordynsky_raion",
      "name": "Ордынский р-н",
      "short": "Ордынский",
      "type": "район",
      "lat": 54.370,
      "lon": 81.900,
      "vsego_t": 1200,
      "tverdye_t": 170,
      "so2_t": 340,
      "co_t": 380,
      "nox_t": 220,
      "los_t": 60,
      "prochie_t": 30,
      "data_status": "estimate",
      "main_sources": "Котельные, с/х"
    },
    {
      "id": "suzunsky_raion",
      "name": "Сузунский р-н",
      "short": "Сузунский",
      "type": "район",
      "lat": 53.782,
      "lon": 82.336,
      "vsego_t": 900,
      "tverdye_t": 130,
      "so2_t": 250,
      "co_t": 280,
      "nox_t": 160,
      "los_t": 50,
      "prochie_t": 30,
      "data_status": "estimate",
      "main_sources": "Котельные"
    },
    {
      "id": "vendegerovsky_raion",
      "name": "Венгеровский р-н",
      "short": "Венгеровский",
      "type": "район",
      "lat": 55.689,
      "lon": 76.743,
      "vsego_t": 1100,
      "tverdye_t": 160,
      "so2_t": 310,
      "co_t": 340,
      "nox_t": 200,
      "los_t": 60,
      "prochie_t": 30,
      "data_status": "estimate",
      "main_sources": "Котельные, с/х"
    },
    {
      "id": "chanovsky_raion",
      "name": "Чановский р-н",
      "short": "Чановский",
      "type": "район",
      "lat": 55.317,
      "lon": 76.761,
      "vsego_t": 1000,
      "tverdye_t": 145,
      "so2_t": 285,
      "co_t": 315,
      "nox_t": 180,
      "los_t": 50,
      "prochie_t": 25,
      "data_status": "estimate",
      "main_sources": "Котельные"
    },
    {
      "id": "kupinsky_raion",
      "name": "Купинский р-н",
      "short": "Купинский",
      "type": "район",
      "lat": 54.363,
      "lon": 77.297,
      "vsego_t": 1100,
      "tverdye_t": 160,
      "so2_t": 310,
      "co_t": 340,
      "nox_t": 195,
      "los_t": 60,
      "prochie_t": 35,
      "data_status": "estimate",
      "main_sources": "Котельные, с/х"
    },
    {
      "id": "tatarsk_city",
      "name": "г. Татарск",
      "short": "Татарск",
      "type": "городское поселение",
      "lat": 55.214,
      "lon": 75.973,
      "vsego_t": 1500,
      "tverdye_t": 200,
      "so2_t": 430,
      "co_t": 490,
      "nox_t": 270,
      "los_t": 80,
      "prochie_t": 30,
      "data_status": "estimate",
      "main_sources": "Котельные, ОАО «ТЗРА»"
    },
    {
      "id": "dovolensky_raion",
      "name": "Доволенский р-н",
      "short": "Доволенский",
      "type": "район",
      "lat": 54.602,
      "lon": 79.639,
      "vsego_t": 600,
      "tverdye_t": 88,
      "so2_t": 170,
      "co_t": 190,
      "nox_t": 110,
      "los_t": 28,
      "prochie_t": 14,
      "data_status": "estimate",
      "main_sources": "Котельные"
    },
    {
      "id": "zdvinsky_raion",
      "name": "Здвинский р-н",
      "short": "Здвинский",
      "type": "район",
      "lat": 54.700,
      "lon": 78.668,
      "vsego_t": 550,
      "tverdye_t": 80,
      "so2_t": 155,
      "co_t": 175,
      "nox_t": 100,
      "los_t": 26,
      "prochie_t": 14,
      "data_status": "estimate",
      "main_sources": "Котельные"
    },
    {
      "id": "kochkovsky_raion",
      "name": "Кочковский р-н",
      "short": "Кочковский",
      "type": "район",
      "lat": 54.271,
      "lon": 80.481,
      "vsego_t": 800,
      "tverdye_t": 115,
      "so2_t": 225,
      "co_t": 255,
      "nox_t": 145,
      "los_t": 40,
      "prochie_t": 20,
      "data_status": "estimate",
      "main_sources": "Котельные, с/х"
    },
    {
      "id": "ubinsky_raion",
      "name": "Убинский р-н",
      "short": "Убинский",
      "type": "район",
      "lat": 55.298,
      "lon": 79.692,
      "vsego_t": 750,
      "tverdye_t": 108,
      "so2_t": 210,
      "co_t": 240,
      "nox_t": 135,
      "los_t": 37,
      "prochie_t": 20,
      "data_status": "estimate",
      "main_sources": "Котельные"
    },
    {
      "id": "kargatsky_raion",
      "name": "Каргатский р-н",
      "short": "Каргатский",
      "type": "район",
      "lat": 55.191,
      "lon": 80.285,
      "vsego_t": 700,
      "tverdye_t": 100,
      "so2_t": 197,
      "co_t": 223,
      "nox_t": 127,
      "los_t": 35,
      "prochie_t": 18,
      "data_status": "estimate",
      "main_sources": "Котельные"
    },
    {
      "id": "ust_tarksky_raion",
      "name": "Усть-Таркский р-н",
      "short": "Усть-Таркский",
      "type": "район",
      "lat": 55.973,
      "lon": 75.716,
      "vsego_t": 500,
      "tverdye_t": 72,
      "so2_t": 141,
      "co_t": 160,
      "nox_t": 91,
      "los_t": 25,
      "prochie_t": 11,
      "data_status": "estimate",
      "main_sources": "Котельные"
    },
    {
      "id": "severny_raion",
      "name": "Северный р-н",
      "short": "Северный",
      "type": "район",
      "lat": 57.980,
      "lon": 80.012,
      "vsego_t": 450,
      "tverdye_t": 65,
      "so2_t": 127,
      "co_t": 143,
      "nox_t": 82,
      "los_t": 22,
      "prochie_t": 11,
      "data_status": "estimate",
      "main_sources": "Котельные (природный газ)"
    },
    {
      "id": "chistoozerny_raion",
      "name": "Чистоозёрный р-н",
      "short": "Чистоозёрный",
      "type": "район",
      "lat": 54.720,
      "lon": 76.581,
      "vsego_t": 680,
      "tverdye_t": 98,
      "so2_t": 190,
      "co_t": 217,
      "nox_t": 123,
      "los_t": 33,
      "prochie_t": 19,
      "data_status": "estimate",
      "main_sources": "Котельные, с/х"
    },
    {
      "id": "ob",
      "name": "г. Обь",
      "short": "Обь",
      "type": "город",
      "lat": 54.990,
      "lon": 82.720,
      "vsego_t": 1100,
      "tverdye_t": 180,
      "so2_t": 350,
      "co_t": 380,
      "nox_t": 150,
      "los_t": 28,
      "prochie_t": 12,
      "data_status": "estimate",
      "main_sources": "Котельные, Толмачёво (аэропорт)"
    }
  ]
}
